[
    {
      "id": "R1",
      "origin": "Chacaíto",
      "destination": "Hatillo",
      "fare": 350,
      "capacity": 40,
      "departures": [
        "2024-05-01T08:00:00",
        "2024-05-01T10:00:00",
        "2024-05-01T12:00:00"
      ],
      "arrivals": [
        "2024-05-01T08:45:00",
        "2024-05-01T10:45:00",
        "2024-05-01T12:45:00"
      ],
      "stops": [
        {
          "name": "C.C. Chacaíto",
          "lat": 10.492459819081631,
          "lng": -66.86892610160511
        },
        {
          "name": "Plaza Francia Norte",
          "lat": 10.496730660219482,
          "lng": -66.84841705584098
        },
        {
          "name": "C.C. Concresa",
          "lat": 10.452384325299942,
          "lng": -66.87235166721587
        },
        {
          "name": "C.C. Paseo El Hatillo",
          "lat": 10.423525516585038,
          "lng": -66.82346961748294
        }
      ]
    },
    {
      "id": "R2",
      "origin": "Plaza Las Américas",
      "destination": "Chacaíto",
      "fare": 275,
      "capacity": 30,
      "departures": ["2024-05-01T09:00:00", "2024-05-01T11:00:00"],
      "arrivals": ["2024-05-01T09:30:00", "2024-05-01T11:30:00"],
      "stops": [
        {
          "name": "Plaza Las Américas",
          "lat": 10.458703605720975,
          "lng": -66.82845059909556
        },
        {
          "name": "C.C. Caurimare",
          "lat": 10.472791192237525,
          "lng": -66.83812676472644
        },
        {
          "name": "Parque Cristal",
          "lat": 10.49702445885483,
          "lng": -66.8435437796807
        },
        {
          "name": "C.C. Chacaíto",
          "lat": 10.492459819081631,
          "lng": -66.86892610160511
        }
      ]
    }
  ]
  